[
  {
    "id": "bondi-icebergs",
    "name": "Bondi Icebergs Pool",
    "suburb": "Bondi",
    "lat": -33.891475,
    "lng": 151.276684,
    "stamp": "stamps/bondi-icebergs.png"
  },
  {
    "id": "bronte-baths",
    "name": "Bronte Baths",
    "suburb": "Bronte",
    "lat": -33.901355,
    "lng": 151.265255,
    "stamp": "stamps/bronte-baths.png"
  },
  {
    "id": "wylies-baths",
    "name": "Wylie's Baths",
    "suburb": "Coogee",
    "lat": -33.922365,
    "lng": 151.260207,
    "stamp": "stamps/wylies-baths.png"
  },
  {
    "id": "mahon-pool",
    "name": "Mahon Pool",
    "suburb": "Maroubra",
    "lat": -33.949245,
    "lng": 151.256381,
    "stamp": "stamps/mahon-pool.png"
  },
  {
    "id": "fairy-bower",
    "name": "Fairy Bower Pool",
    "suburb": "Manly",
    "lat": -33.803528,
    "lng": 151.292091,
    "stamp": "stamps/fairy-bower.png"
  },
  {
    "id": "south-curl-curl",
    "name": "South Curl Curl Rockpool",
    "suburb": "Curl Curl",
    "lat": -33.767509,
    "lng": 151.298137,
    "stamp": "stamps/south-curl-curl.png"
  },
  {
    "id": "dee-why",
    "name": "Dee Why Ocean Pool",
    "suburb": "Dee Why",
    "lat": -33.751079,
    "lng": 151.301707,
    "stamp": "stamps/dee-why.png"
  },
  {
    "id": "north-curl-curl",
    "name": "North Curl Curl Rockpool",
    "suburb": "Curl Curl",
    "lat": -33.764460,
    "lng": 151.301630,
    "stamp": "stamps/north-curl-curl.png"
  }
]
